<markers>
 <marker name="Grand Theatre" address="33 Church St, Blackpool, Lancashire, FY1 1HT" lng="-3.053102" lat="53.817260" category="theatre"/>
 <marker name="Claremont Theatre Club" address="Burwood Dr, Blackpool, Lancashire, FY3 8NS" lng="-3.049690" lat="53.829649" category="theatre"/>
 <marker name="Pendle Productions" address="249 Hawes Side La, Blackpool, Lancashire, FY4 4AA" lng="-3.030698" lat="53.794399" category="theatre"/>
 <marker name="Tram Shed Theatre" address="7 Moor Pk Av, Blackpool, Lancashire, FY2 0LT" lng="-3.034974" lat="53.845938" category="theatre"/>
 <marker name="Thornton Little Theatre" address="Fleetwood Road North, Thornton-Cleveleys, FY5 3SZ" lng="-3.010607" lat="53.872058" category="theatre"/>
 <marker name="Barbara Jackson Arts" address="Rossall La, Fleetwood, Lancashire, FY7 8JP" lng="-3.033960" lat="53.897928" category="theatre"/>
 <marker name="North Shore Golf Club" address="Devonshire Rd, Blackpool, Lancashire, FY2 0RD" lng="-3.043305" lat="53.839898" category="golf"/>
 <marker name="St Annes Old Links" address="Highbury Road East, Lytham St. Annes, Lancashire, FY8 2LD" lng="-3.038407" lat="53.762917" category="golf"/>
 <marker name="Fairhaven Golf Club" address="Oakwood Av, Lytham St. Annes, Lancashire, FY8 4JU" lng="-2.983218" lat="53.742781" category="golf"/>
 <marker name="Green Drive Golf Club2" address="Ballam Rd, Lytham St. Annes, Lancashire, FY8 4LE" lng="-2.959530" lat="53.745971" category="golf"/>
 <marker name="Green Drive Golf Club1" address="Ballam Rd, Lytham St. Annes, Lancashire, FY8 4LE" lng="-2.959530" lat="53.745971" category="golf"/>
 <marker name="Fleetwood Golf Club" address="Princes Wy, Fleetwood, Lancashire, FY7 8AF" lng="-3.042973" lat="53.917606" category="golf"/>
 <marker name="Knott End Golf Club" address="Wyre Side, Knott End-on-Sea, Poulton-le-Fylde, Lancashire, FY6 0AA" lng="-2.997062" lat="53.923200" category="golf"/>
 <marker name="Tourist Information 1" address="1 Clifton St, Blackpool, Lancashire, FY1 1LY" lng="-3.054529" lat="53.818775" category="info"/>
 <marker name="Tourist Information 2" address="Thornton-Cleveleys, Lancashire, FY5 1WA" lng="-3.042989" lat="53.876079" category="info"/>
 <marker name="Tourist Information 3" address="Victoria Rd West, Thornton-Cleveleys, Lancashire, FY5 1AJ" lng="-3.041668" lat="53.877403" category="info"/>
 <marker name="Tourist Information 4" address="St. Annes Rd West, Lytham St. Annes, Lancashire, FY8 1SA" lng="-3.031074" lat="53.752122" category="info"/>
 <marker name="Tourist Information 5" address="The Esplanade, Fleetwood, Lancashire, FY7 6DL" lng="-3.006366" lat="53.926970" category="info"/>
 <marker name="Tourist Information 6" address="10-12 York St, Blackpool, Lancashire, FY1 5AQ" lng="-3.052919" lat="53.810556" category="info"/>
</markers>